{
    "type": "FeatureCollection",
    "features": [
        {
            "type": "Feature",
            "geometry": {
                "type": "Point",
                "coordinates": [
                    4.8709111,
                    52.3386782
                ]
            },
            "properties": {
                "Start": "Amsterdam",
                "End": "Bucharest",
                "stop_name": "Amsterdam",
                "latitude": 52.3386782,
                "longitude": 4.8709111
            }
        },
        {
            "type": "Feature",
            "geometry": {
                "type": "Point",
                "coordinates": [
                    6.1715742,
                    51.3652077
                ]
            },
            "properties": {
                "Start": "Amsterdam",
                "End": "Bucharest",
                "stop_name": "Venlo",
                "latitude": 51.3652077,
                "longitude": 6.1715742
            }
        },
        {
            "type": "Feature",
            "geometry": {
                "type": "Point",
                "coordinates": [
                    6.7927281,
                    51.220115
                ]
            },
            "properties": {
                "Start": "Amsterdam",
                "End": "Bucharest",
                "stop_name": "D\u00fcsseldorf Central Station",
                "latitude": 51.220115,
                "longitude": 6.7927281
            }
        },
        {
            "type": "Feature",
            "geometry": {
                "type": "Point",
                "coordinates": [
                    9.182289,
                    48.783206
                ]
            },
            "properties": {
                "Start": "Amsterdam",
                "End": "Bucharest",
                "stop_name": "Stuttgart Hbf",
                "latitude": 48.783206,
                "longitude": 9.182289
            }
        },
        {
            "type": "Feature",
            "geometry": {
                "type": "Point",
                "coordinates": [
                    13.0450707,
                    47.8130704
                ]
            },
            "properties": {
                "Start": "Amsterdam",
                "End": "Bucharest",
                "stop_name": "Salzburg",
                "latitude": 47.8130704,
                "longitude": 13.0450707
            }
        },
        {
            "type": "Feature",
            "geometry": {
                "type": "Point",
                "coordinates": [
                    19.0839882,
                    47.5004423
                ]
            },
            "properties": {
                "Start": "Amsterdam",
                "End": "Bucharest",
                "stop_name": "Budapest-Keleti",
                "latitude": 47.5004423,
                "longitude": 19.0839882
            }
        },
        {
            "type": "Feature",
            "geometry": {
                "type": "Point",
                "coordinates": [
                    21.325147,
                    46.1896347
                ]
            },
            "properties": {
                "Start": "Amsterdam",
                "End": "Bucharest",
                "stop_name": "Arad station",
                "latitude": 46.1896347,
                "longitude": 21.325147
            }
        },
        {
            "type": "Feature",
            "geometry": {
                "type": "Point",
                "coordinates": [
                    26.10222,
                    44.43558
                ]
            },
            "properties": {
                "Start": "Amsterdam",
                "End": "Bucharest",
                "stop_name": "Bucharest",
                "latitude": 44.43558,
                "longitude": 26.10222
            }
        }
    ]
}