{
    "type": "FeatureCollection",
    "features": [
        {
            "type": "Feature",
            "geometry": {
                "type": "Point",
                "coordinates": [
                    -2.90573,
                    43.247
                ]
            },
            "properties": {
                "Start": "Bilbao",
                "End": "Budapest",
                "stop_name": "Bilbao",
                "latitude": 43.247,
                "longitude": -2.90573
            }
        },
        {
            "type": "Feature",
            "geometry": {
                "type": "Point",
                "coordinates": [
                    -2.00686,
                    43.27896
                ]
            },
            "properties": {
                "Start": "Bilbao",
                "End": "Budapest",
                "stop_name": "Errekalde Donostia",
                "latitude": 43.27896,
                "longitude": -2.00686
            }
        },
        {
            "type": "Feature",
            "geometry": {
                "type": "Point",
                "coordinates": [
                    -1.7818973,
                    43.3531913
                ]
            },
            "properties": {
                "Start": "Bilbao",
                "End": "Budapest",
                "stop_name": "Hendaye",
                "latitude": 43.3531913,
                "longitude": -1.7818973
            }
        },
        {
            "type": "Feature",
            "geometry": {
                "type": "Point",
                "coordinates": [
                    -0.5564074,
                    44.8254453
                ]
            },
            "properties": {
                "Start": "Bilbao",
                "End": "Budapest",
                "stop_name": "Saint-Jean",
                "latitude": 44.8254453,
                "longitude": -0.5564074
            }
        },
        {
            "type": "Feature",
            "geometry": {
                "type": "Point",
                "coordinates": [
                    2.32439,
                    48.84392
                ]
            },
            "properties": {
                "Start": "Bilbao",
                "End": "Budapest",
                "stop_name": "Montparnasse - Bienven\u00fce",
                "latitude": 48.84392,
                "longitude": 2.32439
            }
        },
        {
            "type": "Feature",
            "geometry": {
                "type": "Point",
                "coordinates": [
                    2.3591978,
                    48.8768146
                ]
            },
            "properties": {
                "Start": "Bilbao",
                "End": "Budapest",
                "stop_name": "Gare de l'Est",
                "latitude": 48.8768146,
                "longitude": 2.3591978
            }
        },
        {
            "type": "Feature",
            "geometry": {
                "type": "Point",
                "coordinates": [
                    8.46982,
                    49.4797015
                ]
            },
            "properties": {
                "Start": "Bilbao",
                "End": "Budapest",
                "stop_name": "Mannheim",
                "latitude": 49.4797015,
                "longitude": 8.46982
            }
        },
        {
            "type": "Feature",
            "geometry": {
                "type": "Point",
                "coordinates": [
                    11.5599976,
                    48.1402903
                ]
            },
            "properties": {
                "Start": "Bilbao",
                "End": "Budapest",
                "stop_name": "M\u00fcnchen Hbf Gl.5-10",
                "latitude": 48.1402903,
                "longitude": 11.5599976
            }
        },
        {
            "type": "Feature",
            "geometry": {
                "type": "Point",
                "coordinates": [
                    13.0450707,
                    47.8130704
                ]
            },
            "properties": {
                "Start": "Bilbao",
                "End": "Budapest",
                "stop_name": "Salzburg",
                "latitude": 47.8130704,
                "longitude": 13.0450707
            }
        },
        {
            "type": "Feature",
            "geometry": {
                "type": "Point",
                "coordinates": [
                    16.3765973,
                    48.1851873
                ]
            },
            "properties": {
                "Start": "Bilbao",
                "End": "Budapest",
                "stop_name": "Vienna Central T",
                "latitude": 48.1851873,
                "longitude": 16.3765973
            }
        },
        {
            "type": "Feature",
            "geometry": {
                "type": "Point",
                "coordinates": [
                    17.14702,
                    47.913506
                ]
            },
            "properties": {
                "Start": "Bilbao",
                "End": "Budapest",
                "stop_name": "Hegyeshalom",
                "latitude": 47.913506,
                "longitude": 17.14702
            }
        },
        {
            "type": "Feature",
            "geometry": {
                "type": "Point",
                "coordinates": [
                    19.04055,
                    47.49814
                ]
            },
            "properties": {
                "Start": "Bilbao",
                "End": "Budapest",
                "stop_name": "Budapest",
                "latitude": 47.49814,
                "longitude": 19.04055
            }
        }
    ]
}