{
    "type": "FeatureCollection",
    "features": [
        {
            "type": "Feature",
            "geometry": {
                "type": "Point",
                "coordinates": [
                    -2.90573,
                    43.247
                ]
            },
            "properties": {
                "Start": "Bilbao",
                "End": "Rome",
                "stop_name": "Bilbao",
                "latitude": 43.247,
                "longitude": -2.90573
            }
        },
        {
            "type": "Feature",
            "geometry": {
                "type": "Point",
                "coordinates": [
                    -2.00686,
                    43.27896
                ]
            },
            "properties": {
                "Start": "Bilbao",
                "End": "Rome",
                "stop_name": "Errekalde Donostia",
                "latitude": 43.27896,
                "longitude": -2.00686
            }
        },
        {
            "type": "Feature",
            "geometry": {
                "type": "Point",
                "coordinates": [
                    -1.7818973,
                    43.3531913
                ]
            },
            "properties": {
                "Start": "Bilbao",
                "End": "Rome",
                "stop_name": "Hendaye",
                "latitude": 43.3531913,
                "longitude": -1.7818973
            }
        },
        {
            "type": "Feature",
            "geometry": {
                "type": "Point",
                "coordinates": [
                    -1.4704408,
                    43.4967821
                ]
            },
            "properties": {
                "Start": "Bilbao",
                "End": "Rome",
                "stop_name": "Bayonne",
                "latitude": 43.4967821,
                "longitude": -1.4704408
            }
        },
        {
            "type": "Feature",
            "geometry": {
                "type": "Point",
                "coordinates": [
                    2.3743773,
                    48.8443038
                ]
            },
            "properties": {
                "Start": "Bilbao",
                "End": "Rome",
                "stop_name": "Paris",
                "latitude": 48.8443038,
                "longitude": 2.3743773
            }
        },
        {
            "type": "Feature",
            "geometry": {
                "type": "Point",
                "coordinates": [
                    7.6658989,
                    45.0716193
                ]
            },
            "properties": {
                "Start": "Bilbao",
                "End": "Rome",
                "stop_name": "Torino Porta Susa",
                "latitude": 45.0716193,
                "longitude": 7.6658989
            }
        },
        {
            "type": "Feature",
            "geometry": {
                "type": "Point",
                "coordinates": [
                    9.204822,
                    45.487137
                ]
            },
            "properties": {
                "Start": "Bilbao",
                "End": "Rome",
                "stop_name": "Milano Centrale Railway Station",
                "latitude": 45.487137,
                "longitude": 9.204822
            }
        },
        {
            "type": "Feature",
            "geometry": {
                "type": "Point",
                "coordinates": [
                    12.49427,
                    41.89056
                ]
            },
            "properties": {
                "Start": "Bilbao",
                "End": "Rome",
                "stop_name": "Rome",
                "latitude": 41.89056,
                "longitude": 12.49427
            }
        }
    ]
}