{
    "type": "FeatureCollection",
    "features": [
        {
            "type": "Feature",
            "geometry": {
                "type": "Point",
                "coordinates": [
                    -2.90573,
                    43.247
                ]
            },
            "properties": {
                "Start": "Bilbao",
                "End": "Bucharest",
                "stop_name": "Bilbao",
                "latitude": 43.247,
                "longitude": -2.90573
            }
        },
        {
            "type": "Feature",
            "geometry": {
                "type": "Point",
                "coordinates": [
                    -2.00686,
                    43.27896
                ]
            },
            "properties": {
                "Start": "Bilbao",
                "End": "Bucharest",
                "stop_name": "Errekalde Donostia",
                "latitude": 43.27896,
                "longitude": -2.00686
            }
        },
        {
            "type": "Feature",
            "geometry": {
                "type": "Point",
                "coordinates": [
                    -1.7818973,
                    43.3531913
                ]
            },
            "properties": {
                "Start": "Bilbao",
                "End": "Bucharest",
                "stop_name": "Hendaye",
                "latitude": 43.3531913,
                "longitude": -1.7818973
            }
        },
        {
            "type": "Feature",
            "geometry": {
                "type": "Point",
                "coordinates": [
                    -0.5564074,
                    44.8254453
                ]
            },
            "properties": {
                "Start": "Bilbao",
                "End": "Bucharest",
                "stop_name": "Saint-Jean",
                "latitude": 44.8254453,
                "longitude": -0.5564074
            }
        },
        {
            "type": "Feature",
            "geometry": {
                "type": "Point",
                "coordinates": [
                    2.32439,
                    48.84392
                ]
            },
            "properties": {
                "Start": "Bilbao",
                "End": "Bucharest",
                "stop_name": "Montparnasse - Bienven\u00fce",
                "latitude": 48.84392,
                "longitude": 2.32439
            }
        },
        {
            "type": "Feature",
            "geometry": {
                "type": "Point",
                "coordinates": [
                    2.3591978,
                    48.8768146
                ]
            },
            "properties": {
                "Start": "Bilbao",
                "End": "Bucharest",
                "stop_name": "Gare de l'Est",
                "latitude": 48.8768146,
                "longitude": 2.3591978
            }
        },
        {
            "type": "Feature",
            "geometry": {
                "type": "Point",
                "coordinates": [
                    8.46982,
                    49.4797015
                ]
            },
            "properties": {
                "Start": "Bilbao",
                "End": "Bucharest",
                "stop_name": "Mannheim",
                "latitude": 49.4797015,
                "longitude": 8.46982
            }
        },
        {
            "type": "Feature",
            "geometry": {
                "type": "Point",
                "coordinates": [
                    8.6637837,
                    50.1071439
                ]
            },
            "properties": {
                "Start": "Bilbao",
                "End": "Bucharest",
                "stop_name": "Frankfurt Central Station",
                "latitude": 50.1071439,
                "longitude": 8.6637837
            }
        },
        {
            "type": "Feature",
            "geometry": {
                "type": "Point",
                "coordinates": [
                    14.2909977,
                    48.2905228
                ]
            },
            "properties": {
                "Start": "Bilbao",
                "End": "Bucharest",
                "stop_name": "Linz/Donau",
                "latitude": 48.2905228,
                "longitude": 14.2909977
            }
        },
        {
            "type": "Feature",
            "geometry": {
                "type": "Point",
                "coordinates": [
                    19.0839882,
                    47.5004423
                ]
            },
            "properties": {
                "Start": "Bilbao",
                "End": "Bucharest",
                "stop_name": "Budapest-Keleti",
                "latitude": 47.5004423,
                "longitude": 19.0839882
            }
        },
        {
            "type": "Feature",
            "geometry": {
                "type": "Point",
                "coordinates": [
                    26.10222,
                    44.43558
                ]
            },
            "properties": {
                "Start": "Bilbao",
                "End": "Bucharest",
                "stop_name": "Bucharest",
                "latitude": 44.43558,
                "longitude": 26.10222
            }
        }
    ]
}