{
    "type": "FeatureCollection",
    "features": [
        {
            "type": "Feature",
            "geometry": {
                "type": "Point",
                "coordinates": [
                    17.107884,
                    48.1484821
                ]
            },
            "properties": {
                "Start": "Bratislava",
                "End": "Paris",
                "stop_name": "Bratislava",
                "latitude": 48.1484821,
                "longitude": 17.107884
            }
        },
        {
            "type": "Feature",
            "geometry": {
                "type": "Point",
                "coordinates": [
                    16.3765973,
                    48.1851873
                ]
            },
            "properties": {
                "Start": "Bratislava",
                "End": "Paris",
                "stop_name": "Vienna Central T",
                "latitude": 48.1851873,
                "longitude": 16.3765973
            }
        },
        {
            "type": "Feature",
            "geometry": {
                "type": "Point",
                "coordinates": [
                    11.558335,
                    48.140232
                ]
            },
            "properties": {
                "Start": "Bratislava",
                "End": "Paris",
                "stop_name": "M\u00fcnchen Hbf Gl.5-10",
                "latitude": 48.140232,
                "longitude": 11.558335
            }
        },
        {
            "type": "Feature",
            "geometry": {
                "type": "Point",
                "coordinates": [
                    8.46982,
                    49.4797015
                ]
            },
            "properties": {
                "Start": "Bratislava",
                "End": "Paris",
                "stop_name": "Mannheim",
                "latitude": 49.4797015,
                "longitude": 8.46982
            }
        },
        {
            "type": "Feature",
            "geometry": {
                "type": "Point",
                "coordinates": [
                    2.35085,
                    48.85689
                ]
            },
            "properties": {
                "Start": "Bratislava",
                "End": "Paris",
                "stop_name": "Paris",
                "latitude": 48.85689,
                "longitude": 2.35085
            }
        }
    ]
}