{
    "type": "FeatureCollection",
    "features": [
        {
            "type": "Feature",
            "geometry": {
                "type": "Point",
                "coordinates": [
                    4.3570964,
                    50.845504
                ]
            },
            "properties": {
                "Start": "Brussels",
                "End": "Bucharest",
                "stop_name": "Brussels",
                "latitude": 50.845504,
                "longitude": 4.3570964
            }
        },
        {
            "type": "Feature",
            "geometry": {
                "type": "Point",
                "coordinates": [
                    8.5698462,
                    50.0528675
                ]
            },
            "properties": {
                "Start": "Brussels",
                "End": "Bucharest",
                "stop_name": "Frankfurt (Main) Airport Fernbahnhof",
                "latitude": 50.0528675,
                "longitude": 8.5698462
            }
        },
        {
            "type": "Feature",
            "geometry": {
                "type": "Point",
                "coordinates": [
                    11.5599976,
                    48.1402903
                ]
            },
            "properties": {
                "Start": "Brussels",
                "End": "Bucharest",
                "stop_name": "M\u00fcnchen Hbf Gl.5-10",
                "latitude": 48.1402903,
                "longitude": 11.5599976
            }
        },
        {
            "type": "Feature",
            "geometry": {
                "type": "Point",
                "coordinates": [
                    13.0450707,
                    47.8130704
                ]
            },
            "properties": {
                "Start": "Brussels",
                "End": "Bucharest",
                "stop_name": "Salzburg",
                "latitude": 47.8130704,
                "longitude": 13.0450707
            }
        },
        {
            "type": "Feature",
            "geometry": {
                "type": "Point",
                "coordinates": [
                    19.0839882,
                    47.5004423
                ]
            },
            "properties": {
                "Start": "Brussels",
                "End": "Bucharest",
                "stop_name": "Budapest-Keleti",
                "latitude": 47.5004423,
                "longitude": 19.0839882
            }
        },
        {
            "type": "Feature",
            "geometry": {
                "type": "Point",
                "coordinates": [
                    21.325147,
                    46.1896347
                ]
            },
            "properties": {
                "Start": "Brussels",
                "End": "Bucharest",
                "stop_name": "Arad station",
                "latitude": 46.1896347,
                "longitude": 21.325147
            }
        },
        {
            "type": "Feature",
            "geometry": {
                "type": "Point",
                "coordinates": [
                    26.10222,
                    44.43558
                ]
            },
            "properties": {
                "Start": "Brussels",
                "End": "Bucharest",
                "stop_name": "Bucharest",
                "latitude": 44.43558,
                "longitude": 26.10222
            }
        }
    ]
}