{
    "type": "FeatureCollection",
    "features": [
        {
            "type": "Feature",
            "geometry": {
                "type": "Point",
                "coordinates": [
                    26.073892,
                    44.446634
                ]
            },
            "properties": {
                "Start": "Bucharest",
                "End": "Paris",
                "stop_name": "Bucharest",
                "latitude": 44.446634,
                "longitude": 26.073892
            }
        },
        {
            "type": "Feature",
            "geometry": {
                "type": "Point",
                "coordinates": [
                    19.0839882,
                    47.5004423
                ]
            },
            "properties": {
                "Start": "Bucharest",
                "End": "Paris",
                "stop_name": "Budapest-Keleti",
                "latitude": 47.5004423,
                "longitude": 19.0839882
            }
        },
        {
            "type": "Feature",
            "geometry": {
                "type": "Point",
                "coordinates": [
                    16.3765973,
                    48.1851873
                ]
            },
            "properties": {
                "Start": "Bucharest",
                "End": "Paris",
                "stop_name": "Vienna Central T",
                "latitude": 48.1851873,
                "longitude": 16.3765973
            }
        },
        {
            "type": "Feature",
            "geometry": {
                "type": "Point",
                "coordinates": [
                    11.558335,
                    48.140232
                ]
            },
            "properties": {
                "Start": "Bucharest",
                "End": "Paris",
                "stop_name": "M\u00fcnchen Hbf Gl.5-10",
                "latitude": 48.140232,
                "longitude": 11.558335
            }
        },
        {
            "type": "Feature",
            "geometry": {
                "type": "Point",
                "coordinates": [
                    8.46982,
                    49.4797015
                ]
            },
            "properties": {
                "Start": "Bucharest",
                "End": "Paris",
                "stop_name": "Mannheim",
                "latitude": 49.4797015,
                "longitude": 8.46982
            }
        },
        {
            "type": "Feature",
            "geometry": {
                "type": "Point",
                "coordinates": [
                    6.991,
                    49.241
                ]
            },
            "properties": {
                "Start": "Bucharest",
                "End": "Paris",
                "stop_name": "Europabahnhof Saarbr\u00fccken",
                "latitude": 49.241,
                "longitude": 6.991
            }
        },
        {
            "type": "Feature",
            "geometry": {
                "type": "Point",
                "coordinates": [
                    6.90132,
                    49.18923
                ]
            },
            "properties": {
                "Start": "Bucharest",
                "End": "Paris",
                "stop_name": "Forbach",
                "latitude": 49.18923,
                "longitude": 6.90132
            }
        },
        {
            "type": "Feature",
            "geometry": {
                "type": "Point",
                "coordinates": [
                    6.177211,
                    49.1098282
                ]
            },
            "properties": {
                "Start": "Bucharest",
                "End": "Paris",
                "stop_name": "Gare de Metz",
                "latitude": 49.1098282,
                "longitude": 6.177211
            }
        },
        {
            "type": "Feature",
            "geometry": {
                "type": "Point",
                "coordinates": [
                    2.35085,
                    48.85689
                ]
            },
            "properties": {
                "Start": "Bucharest",
                "End": "Paris",
                "stop_name": "Paris",
                "latitude": 48.85689,
                "longitude": 2.35085
            }
        }
    ]
}