{
    "type": "FeatureCollection",
    "features": [
        {
            "type": "Feature",
            "geometry": {
                "type": "Point",
                "coordinates": [
                    12.5648118,
                    55.6727679
                ]
            },
            "properties": {
                "Start": "Copenhagen",
                "End": "Istanbul",
                "stop_name": "Copenhagen",
                "latitude": 55.6727679,
                "longitude": 12.5648118
            }
        },
        {
            "type": "Feature",
            "geometry": {
                "type": "Point",
                "coordinates": [
                    9.739996,
                    55.568302
                ]
            },
            "properties": {
                "Start": "Copenhagen",
                "End": "Istanbul",
                "stop_name": "Fredericia",
                "latitude": 55.568302,
                "longitude": 9.739996
            }
        },
        {
            "type": "Feature",
            "geometry": {
                "type": "Point",
                "coordinates": [
                    9.4367621,
                    54.7746859
                ]
            },
            "properties": {
                "Start": "Copenhagen",
                "End": "Istanbul",
                "stop_name": "Flensburg",
                "latitude": 54.7746859,
                "longitude": 9.4367621
            }
        },
        {
            "type": "Feature",
            "geometry": {
                "type": "Point",
                "coordinates": [
                    10.0066369,
                    53.552993
                ]
            },
            "properties": {
                "Start": "Copenhagen",
                "End": "Istanbul",
                "stop_name": "Hamburg Central Station",
                "latitude": 53.552993,
                "longitude": 10.0066369
            }
        },
        {
            "type": "Feature",
            "geometry": {
                "type": "Point",
                "coordinates": [
                    9.93578,
                    49.80155
                ]
            },
            "properties": {
                "Start": "Copenhagen",
                "End": "Istanbul",
                "stop_name": "Wurzburg Hbf",
                "latitude": 49.80155,
                "longitude": 9.93578
            }
        },
        {
            "type": "Feature",
            "geometry": {
                "type": "Point",
                "coordinates": [
                    16.3765973,
                    48.1851873
                ]
            },
            "properties": {
                "Start": "Copenhagen",
                "End": "Istanbul",
                "stop_name": "Vienna Central T",
                "latitude": 48.1851873,
                "longitude": 16.3765973
            }
        },
        {
            "type": "Feature",
            "geometry": {
                "type": "Point",
                "coordinates": [
                    26.073892,
                    44.446634
                ]
            },
            "properties": {
                "Start": "Copenhagen",
                "End": "Istanbul",
                "stop_name": "B\u00fckre\u015fti Nord",
                "latitude": 44.446634,
                "longitude": 26.073892
            }
        },
        {
            "type": "Feature",
            "geometry": {
                "type": "Point",
                "coordinates": [
                    28.6323126,
                    44.1689236
                ]
            },
            "properties": {
                "Start": "Copenhagen",
                "End": "Istanbul",
                "stop_name": "Constanta, Romania",
                "latitude": 44.1689236,
                "longitude": 28.6323126
            }
        },
        {
            "type": "Feature",
            "geometry": {
                "type": "Point",
                "coordinates": [
                    28.8946725,
                    41.0400272
                ]
            },
            "properties": {
                "Start": "Copenhagen",
                "End": "Istanbul",
                "stop_name": "Istanbul, T\u00fcrkiye",
                "latitude": 41.0400272,
                "longitude": 28.8946725
            }
        },
        {
            "type": "Feature",
            "geometry": {
                "type": "Point",
                "coordinates": [
                    28.9748,
                    41.013
                ]
            },
            "properties": {
                "Start": "Copenhagen",
                "End": "Istanbul",
                "stop_name": "Istanbul",
                "latitude": 41.013,
                "longitude": 28.9748
            }
        }
    ]
}