{
    "type": "FeatureCollection",
    "features": [
        {
            "type": "Feature",
            "geometry": {
                "type": "Point",
                "coordinates": [
                    13.7314191,
                    51.0405029
                ]
            },
            "properties": {
                "Start": "Dresden",
                "End": "Riga",
                "stop_name": "Dresden",
                "latitude": 51.0405029,
                "longitude": 13.7314191
            }
        },
        {
            "type": "Feature",
            "geometry": {
                "type": "Point",
                "coordinates": [
                    13.369402,
                    52.5250839
                ]
            },
            "properties": {
                "Start": "Dresden",
                "End": "Riga",
                "stop_name": "Berlin Central Train Station",
                "latitude": 52.5250839,
                "longitude": 13.369402
            }
        },
        {
            "type": "Feature",
            "geometry": {
                "type": "Point",
                "coordinates": [
                    13.469105,
                    52.503037
                ]
            },
            "properties": {
                "Start": "Dresden",
                "End": "Riga",
                "stop_name": "Ostkreuz",
                "latitude": 52.503037,
                "longitude": 13.469105
            }
        },
        {
            "type": "Feature",
            "geometry": {
                "type": "Point",
                "coordinates": [
                    14.6449248,
                    52.5913563
                ]
            },
            "properties": {
                "Start": "Dresden",
                "End": "Riga",
                "stop_name": "Kostrzy\u0144 nad Odr\u0105, Poland",
                "latitude": 52.5913563,
                "longitude": 14.6449248
            }
        },
        {
            "type": "Feature",
            "geometry": {
                "type": "Point",
                "coordinates": [
                    20.9655106,
                    52.2194795
                ]
            },
            "properties": {
                "Start": "Dresden",
                "End": "Riga",
                "stop_name": "Warsaw West",
                "latitude": 52.2194795,
                "longitude": 20.9655106
            }
        },
        {
            "type": "Feature",
            "geometry": {
                "type": "Point",
                "coordinates": [
                    25.2842932,
                    54.6703567
                ]
            },
            "properties": {
                "Start": "Dresden",
                "End": "Riga",
                "stop_name": "Vilnius Central Train Station",
                "latitude": 54.6703567,
                "longitude": 25.2842932
            }
        },
        {
            "type": "Feature",
            "geometry": {
                "type": "Point",
                "coordinates": [
                    23.315468,
                    55.9228685
                ]
            },
            "properties": {
                "Start": "Dresden",
                "End": "Riga",
                "stop_name": "Siauliai, Lithuania",
                "latitude": 55.9228685,
                "longitude": 23.315468
            }
        },
        {
            "type": "Feature",
            "geometry": {
                "type": "Point",
                "coordinates": [
                    24.111648,
                    56.9437543
                ]
            },
            "properties": {
                "Start": "Dresden",
                "End": "Riga",
                "stop_name": "Riga, Latvia",
                "latitude": 56.9437543,
                "longitude": 24.111648
            }
        }
    ]
}