{
    "type": "FeatureCollection",
    "features": [
        {
            "type": "Feature",
            "geometry": {
                "type": "Point",
                "coordinates": [
                    13.7314191,
                    51.0405029
                ]
            },
            "properties": {
                "Start": "Dresden",
                "End": "Sofia",
                "stop_name": "Dresden",
                "latitude": 51.0405029,
                "longitude": 13.7314191
            }
        },
        {
            "type": "Feature",
            "geometry": {
                "type": "Point",
                "coordinates": [
                    14.4353058,
                    50.0832088
                ]
            },
            "properties": {
                "Start": "Dresden",
                "End": "Sofia",
                "stop_name": "Prague Main Station",
                "latitude": 50.0832088,
                "longitude": 14.4353058
            }
        },
        {
            "type": "Feature",
            "geometry": {
                "type": "Point",
                "coordinates": [
                    16.3765973,
                    48.1851873
                ]
            },
            "properties": {
                "Start": "Dresden",
                "End": "Sofia",
                "stop_name": "Vienna Central T",
                "latitude": 48.1851873,
                "longitude": 16.3765973
            }
        },
        {
            "type": "Feature",
            "geometry": {
                "type": "Point",
                "coordinates": [
                    19.0839882,
                    47.5004423
                ]
            },
            "properties": {
                "Start": "Dresden",
                "End": "Sofia",
                "stop_name": "Budapest-Keleti",
                "latitude": 47.5004423,
                "longitude": 19.0839882
            }
        },
        {
            "type": "Feature",
            "geometry": {
                "type": "Point",
                "coordinates": [
                    26.073892,
                    44.446634
                ]
            },
            "properties": {
                "Start": "Dresden",
                "End": "Sofia",
                "stop_name": "B\u00fckre\u015fti Nord",
                "latitude": 44.446634,
                "longitude": 26.073892
            }
        },
        {
            "type": "Feature",
            "geometry": {
                "type": "Point",
                "coordinates": [
                    23.3201447,
                    42.7108787
                ]
            },
            "properties": {
                "Start": "Dresden",
                "End": "Sofia",
                "stop_name": "Central Railway Station",
                "latitude": 42.7108787,
                "longitude": 23.3201447
            }
        },
        {
            "type": "Feature",
            "geometry": {
                "type": "Point",
                "coordinates": [
                    23.36495,
                    42.699358
                ]
            },
            "properties": {
                "Start": "Dresden",
                "End": "Sofia",
                "stop_name": "Bl.4 ZH.K. Suhata Reka",
                "latitude": 42.699358,
                "longitude": 23.36495
            }
        }
    ]
}