{
    "type": "FeatureCollection",
    "features": [
        {
            "type": "Feature",
            "geometry": {
                "type": "Point",
                "coordinates": [
                    28.8911635,
                    41.0365642
                ]
            },
            "properties": {
                "Start": "Istanbul",
                "End": "Lisbon",
                "stop_name": "Istanbul, T\u00fcrkiye",
                "latitude": 41.0365642,
                "longitude": 28.8911635
            }
        },
        {
            "type": "Feature",
            "geometry": {
                "type": "Point",
                "coordinates": [
                    28.951576,
                    41.005213
                ]
            },
            "properties": {
                "Start": "Istanbul",
                "End": "Lisbon",
                "stop_name": "Yen\u0131kap\u0131",
                "latitude": 41.005213,
                "longitude": 28.951576
            }
        },
        {
            "type": "Feature",
            "geometry": {
                "type": "Point",
                "coordinates": [
                    28.7679118,
                    41.0188916
                ]
            },
            "properties": {
                "Start": "Istanbul",
                "End": "Lisbon",
                "stop_name": "Halkal\u0131",
                "latitude": 41.0188916,
                "longitude": 28.7679118
            }
        },
        {
            "type": "Feature",
            "geometry": {
                "type": "Point",
                "coordinates": [
                    26.073892,
                    44.446634
                ]
            },
            "properties": {
                "Start": "Istanbul",
                "End": "Lisbon",
                "stop_name": "B\u00fckre\u015fti Nord",
                "latitude": 44.446634,
                "longitude": 26.073892
            }
        },
        {
            "type": "Feature",
            "geometry": {
                "type": "Point",
                "coordinates": [
                    19.0839882,
                    47.5004423
                ]
            },
            "properties": {
                "Start": "Istanbul",
                "End": "Lisbon",
                "stop_name": "Budapest-Keleti",
                "latitude": 47.5004423,
                "longitude": 19.0839882
            }
        },
        {
            "type": "Feature",
            "geometry": {
                "type": "Point",
                "coordinates": [
                    16.3765973,
                    48.1851873
                ]
            },
            "properties": {
                "Start": "Istanbul",
                "End": "Lisbon",
                "stop_name": "Vienna Central T",
                "latitude": 48.1851873,
                "longitude": 16.3765973
            }
        },
        {
            "type": "Feature",
            "geometry": {
                "type": "Point",
                "coordinates": [
                    11.556708,
                    48.141529
                ]
            },
            "properties": {
                "Start": "Istanbul",
                "End": "Lisbon",
                "stop_name": "M\u00fcnchen Hbf Gl.5-10",
                "latitude": 48.141529,
                "longitude": 11.556708
            }
        },
        {
            "type": "Feature",
            "geometry": {
                "type": "Point",
                "coordinates": [
                    8.5401934,
                    47.3768914
                ]
            },
            "properties": {
                "Start": "Istanbul",
                "End": "Lisbon",
                "stop_name": "Zurich, Switzerland",
                "latitude": 47.3768914,
                "longitude": 8.5401934
            }
        },
        {
            "type": "Feature",
            "geometry": {
                "type": "Point",
                "coordinates": [
                    7.5897064,
                    47.5475873
                ]
            },
            "properties": {
                "Start": "Istanbul",
                "End": "Lisbon",
                "stop_name": "Basel SBB",
                "latitude": 47.5475873,
                "longitude": 7.5897064
            }
        },
        {
            "type": "Feature",
            "geometry": {
                "type": "Point",
                "coordinates": [
                    7.3428351,
                    47.742426
                ]
            },
            "properties": {
                "Start": "Istanbul",
                "End": "Lisbon",
                "stop_name": "Mulhouse Ville",
                "latitude": 47.742426,
                "longitude": 7.3428351
            }
        },
        {
            "type": "Feature",
            "geometry": {
                "type": "Point",
                "coordinates": [
                    4.3662292,
                    43.832453
                ]
            },
            "properties": {
                "Start": "Istanbul",
                "End": "Lisbon",
                "stop_name": "N\u00eemes Station",
                "latitude": 43.832453,
                "longitude": 4.3662292
            }
        },
        {
            "type": "Feature",
            "geometry": {
                "type": "Point",
                "coordinates": [
                    3.00567,
                    43.19062
                ]
            },
            "properties": {
                "Start": "Istanbul",
                "End": "Lisbon",
                "stop_name": "Narbonne",
                "latitude": 43.19062,
                "longitude": 3.00567
            }
        },
        {
            "type": "Feature",
            "geometry": {
                "type": "Point",
                "coordinates": [
                    3.157858,
                    42.424494
                ]
            },
            "properties": {
                "Start": "Istanbul",
                "End": "Lisbon",
                "stop_name": "Portbou",
                "latitude": 42.424494,
                "longitude": 3.157858
            }
        },
        {
            "type": "Feature",
            "geometry": {
                "type": "Point",
                "coordinates": [
                    2.8169214,
                    41.9793477
                ]
            },
            "properties": {
                "Start": "Istanbul",
                "End": "Lisbon",
                "stop_name": "Girona",
                "latitude": 41.9793477,
                "longitude": 2.8169214
            }
        },
        {
            "type": "Feature",
            "geometry": {
                "type": "Point",
                "coordinates": [
                    -3.70035,
                    40.41669
                ]
            },
            "properties": {
                "Start": "Istanbul",
                "End": "Lisbon",
                "stop_name": "Madrid",
                "latitude": 40.41669,
                "longitude": -3.70035
            }
        },
        {
            "type": "Feature",
            "geometry": {
                "type": "Point",
                "coordinates": [
                    -8.5447196,
                    42.8707911
                ]
            },
            "properties": {
                "Start": "Istanbul",
                "End": "Lisbon",
                "stop_name": "Santiago de Compostela",
                "latitude": 42.8707911,
                "longitude": -8.5447196
            }
        },
        {
            "type": "Feature",
            "geometry": {
                "type": "Point",
                "coordinates": [
                    -8.712034,
                    42.2392617
                ]
            },
            "properties": {
                "Start": "Istanbul",
                "End": "Lisbon",
                "stop_name": "Estaci\u00f3n de tren Vigo Guixar",
                "latitude": 42.2392617,
                "longitude": -8.712034
            }
        },
        {
            "type": "Feature",
            "geometry": {
                "type": "Point",
                "coordinates": [
                    -8.5854509,
                    41.1488193
                ]
            },
            "properties": {
                "Start": "Istanbul",
                "End": "Lisbon",
                "stop_name": "Campanha",
                "latitude": 41.1488193,
                "longitude": -8.5854509
            }
        },
        {
            "type": "Feature",
            "geometry": {
                "type": "Point",
                "coordinates": [
                    -9.0993449,
                    38.7678423
                ]
            },
            "properties": {
                "Start": "Istanbul",
                "End": "Lisbon",
                "stop_name": "Lisboa Oriente",
                "latitude": 38.7678423,
                "longitude": -9.0993449
            }
        }
    ]
}