{
    "type": "FeatureCollection",
    "features": [
        {
            "type": "Feature",
            "geometry": {
                "type": "Point",
                "coordinates": [
                    -9.099361,
                    38.767846
                ]
            },
            "properties": {
                "Start": "Lisbon",
                "End": "Rome",
                "stop_name": "Lisbon",
                "latitude": 38.767846,
                "longitude": -9.099361
            }
        },
        {
            "type": "Feature",
            "geometry": {
                "type": "Point",
                "coordinates": [
                    -6.3825466,
                    39.460213
                ]
            },
            "properties": {
                "Start": "Lisbon",
                "End": "Rome",
                "stop_name": "C\u00e1ceres, Spain",
                "latitude": 39.460213,
                "longitude": -6.3825466
            }
        },
        {
            "type": "Feature",
            "geometry": {
                "type": "Point",
                "coordinates": [
                    -3.6883126,
                    40.4050269
                ]
            },
            "properties": {
                "Start": "Lisbon",
                "End": "Rome",
                "stop_name": "Estaci\u00f3n Madrid - Puerta de Atocha",
                "latitude": 40.4050269,
                "longitude": -3.6883126
            }
        },
        {
            "type": "Feature",
            "geometry": {
                "type": "Point",
                "coordinates": [
                    5.38041,
                    43.30267
                ]
            },
            "properties": {
                "Start": "Lisbon",
                "End": "Rome",
                "stop_name": "Marseille Saint-Charles",
                "latitude": 43.30267,
                "longitude": 5.38041
            }
        },
        {
            "type": "Feature",
            "geometry": {
                "type": "Point",
                "coordinates": [
                    7.01971,
                    43.55391
                ]
            },
            "properties": {
                "Start": "Lisbon",
                "End": "Rome",
                "stop_name": "Cannes",
                "latitude": 43.55391,
                "longitude": 7.01971
            }
        },
        {
            "type": "Feature",
            "geometry": {
                "type": "Point",
                "coordinates": [
                    7.6097338,
                    43.7924461
                ]
            },
            "properties": {
                "Start": "Lisbon",
                "End": "Rome",
                "stop_name": "Ventimiglia",
                "latitude": 43.7924461,
                "longitude": 7.6097338
            }
        },
        {
            "type": "Feature",
            "geometry": {
                "type": "Point",
                "coordinates": [
                    8.92143,
                    44.41707
                ]
            },
            "properties": {
                "Start": "Lisbon",
                "End": "Rome",
                "stop_name": "Genova Piazza Principe",
                "latitude": 44.41707,
                "longitude": 8.92143
            }
        },
        {
            "type": "Feature",
            "geometry": {
                "type": "Point",
                "coordinates": [
                    9.2367705,
                    45.4847722
                ]
            },
            "properties": {
                "Start": "Lisbon",
                "End": "Rome",
                "stop_name": "Milano Lambrate",
                "latitude": 45.4847722,
                "longitude": 9.2367705
            }
        },
        {
            "type": "Feature",
            "geometry": {
                "type": "Point",
                "coordinates": [
                    12.49427,
                    41.89056
                ]
            },
            "properties": {
                "Start": "Lisbon",
                "End": "Rome",
                "stop_name": "Rome",
                "latitude": 41.89056,
                "longitude": 12.49427
            }
        }
    ]
}