{
    "type": "FeatureCollection",
    "features": [
        {
            "type": "Feature",
            "geometry": {
                "type": "Point",
                "coordinates": [
                    -9.099361,
                    38.767846
                ]
            },
            "properties": {
                "Start": "Lisbon",
                "End": "Stockholm",
                "stop_name": "Lisbon",
                "latitude": 38.767846,
                "longitude": -9.099361
            }
        },
        {
            "type": "Feature",
            "geometry": {
                "type": "Point",
                "coordinates": [
                    -6.3825466,
                    39.460213
                ]
            },
            "properties": {
                "Start": "Lisbon",
                "End": "Stockholm",
                "stop_name": "C\u00e1ceres, Spain",
                "latitude": 39.460213,
                "longitude": -6.3825466
            }
        },
        {
            "type": "Feature",
            "geometry": {
                "type": "Point",
                "coordinates": [
                    -3.6883126,
                    40.4050269
                ]
            },
            "properties": {
                "Start": "Lisbon",
                "End": "Stockholm",
                "stop_name": "Estaci\u00f3n Madrid - Puerta de Atocha",
                "latitude": 40.4050269,
                "longitude": -3.6883126
            }
        },
        {
            "type": "Feature",
            "geometry": {
                "type": "Point",
                "coordinates": [
                    2.8797248,
                    42.6962203
                ]
            },
            "properties": {
                "Start": "Lisbon",
                "End": "Stockholm",
                "stop_name": "Perpignan",
                "latitude": 42.6962203,
                "longitude": 2.8797248
            }
        },
        {
            "type": "Feature",
            "geometry": {
                "type": "Point",
                "coordinates": [
                    2.3661971,
                    48.8416387
                ]
            },
            "properties": {
                "Start": "Lisbon",
                "End": "Stockholm",
                "stop_name": "Gare d'Austerlitz",
                "latitude": 48.8416387,
                "longitude": 2.3661971
            }
        },
        {
            "type": "Feature",
            "geometry": {
                "type": "Point",
                "coordinates": [
                    8.46982,
                    49.4797015
                ]
            },
            "properties": {
                "Start": "Lisbon",
                "End": "Stockholm",
                "stop_name": "Mannheim",
                "latitude": 49.4797015,
                "longitude": 8.46982
            }
        },
        {
            "type": "Feature",
            "geometry": {
                "type": "Point",
                "coordinates": [
                    10.0066369,
                    53.552993
                ]
            },
            "properties": {
                "Start": "Lisbon",
                "End": "Stockholm",
                "stop_name": "Hamburg Central Station",
                "latitude": 53.552993,
                "longitude": 10.0066369
            }
        },
        {
            "type": "Feature",
            "geometry": {
                "type": "Point",
                "coordinates": [
                    12.5648118,
                    55.6727679
                ]
            },
            "properties": {
                "Start": "Lisbon",
                "End": "Stockholm",
                "stop_name": "K\u00f6benhavn H",
                "latitude": 55.6727679,
                "longitude": 12.5648118
            }
        },
        {
            "type": "Feature",
            "geometry": {
                "type": "Point",
                "coordinates": [
                    12.9999228,
                    55.6090669
                ]
            },
            "properties": {
                "Start": "Lisbon",
                "End": "Stockholm",
                "stop_name": "Malm\u00f6 Centralstation",
                "latitude": 55.6090669,
                "longitude": 12.9999228
            }
        },
        {
            "type": "Feature",
            "geometry": {
                "type": "Point",
                "coordinates": [
                    18.06449,
                    59.33279
                ]
            },
            "properties": {
                "Start": "Lisbon",
                "End": "Stockholm",
                "stop_name": "Stockholm",
                "latitude": 59.33279,
                "longitude": 18.06449
            }
        }
    ]
}