{
    "type": "FeatureCollection",
    "features": [
        {
            "type": "Feature",
            "geometry": {
                "type": "Point",
                "coordinates": [
                    14.5122127,
                    46.05823
                ]
            },
            "properties": {
                "Start": "Ljubljana",
                "End": "Oslo",
                "stop_name": "Ljubljana",
                "latitude": 46.05823,
                "longitude": 14.5122127
            }
        },
        {
            "type": "Feature",
            "geometry": {
                "type": "Point",
                "coordinates": [
                    14.0548417,
                    46.4363972
                ]
            },
            "properties": {
                "Start": "Ljubljana",
                "End": "Oslo",
                "stop_name": "Jesenice",
                "latitude": 46.4363972,
                "longitude": 14.0548417
            }
        },
        {
            "type": "Feature",
            "geometry": {
                "type": "Point",
                "coordinates": [
                    13.8486717,
                    46.6182386
                ]
            },
            "properties": {
                "Start": "Ljubljana",
                "End": "Oslo",
                "stop_name": "Villach Hbf",
                "latitude": 46.6182386,
                "longitude": 13.8486717
            }
        },
        {
            "type": "Feature",
            "geometry": {
                "type": "Point",
                "coordinates": [
                    11.558335,
                    48.140232
                ]
            },
            "properties": {
                "Start": "Ljubljana",
                "End": "Oslo",
                "stop_name": "M\u00fcnchen Hbf Gl.5-10",
                "latitude": 48.140232,
                "longitude": 11.558335
            }
        },
        {
            "type": "Feature",
            "geometry": {
                "type": "Point",
                "coordinates": [
                    10.0066369,
                    53.552993
                ]
            },
            "properties": {
                "Start": "Ljubljana",
                "End": "Oslo",
                "stop_name": "Hamburg Central Station",
                "latitude": 53.552993,
                "longitude": 10.0066369
            }
        },
        {
            "type": "Feature",
            "geometry": {
                "type": "Point",
                "coordinates": [
                    12.5648118,
                    55.6727679
                ]
            },
            "properties": {
                "Start": "Ljubljana",
                "End": "Oslo",
                "stop_name": "K\u00f6benhavn H",
                "latitude": 55.6727679,
                "longitude": 12.5648118
            }
        },
        {
            "type": "Feature",
            "geometry": {
                "type": "Point",
                "coordinates": [
                    13.1869731,
                    55.7067651
                ]
            },
            "properties": {
                "Start": "Ljubljana",
                "End": "Oslo",
                "stop_name": "Lund C",
                "latitude": 55.7067651,
                "longitude": 13.1869731
            }
        },
        {
            "type": "Feature",
            "geometry": {
                "type": "Point",
                "coordinates": [
                    15.131988,
                    58.322983
                ]
            },
            "properties": {
                "Start": "Ljubljana",
                "End": "Oslo",
                "stop_name": "Mj\u00f6lby station",
                "latitude": 58.322983,
                "longitude": 15.131988
            }
        },
        {
            "type": "Feature",
            "geometry": {
                "type": "Point",
                "coordinates": [
                    15.1102,
                    59.06668
                ]
            },
            "properties": {
                "Start": "Ljubljana",
                "End": "Oslo",
                "stop_name": "Hallsberg",
                "latitude": 59.06668,
                "longitude": 15.1102
            }
        },
        {
            "type": "Feature",
            "geometry": {
                "type": "Point",
                "coordinates": [
                    10.73874,
                    59.91382
                ]
            },
            "properties": {
                "Start": "Ljubljana",
                "End": "Oslo",
                "stop_name": "Oslo",
                "latitude": 59.91382,
                "longitude": 10.73874
            }
        }
    ]
}