{
    "type": "FeatureCollection",
    "features": [
        {
            "type": "Feature",
            "geometry": {
                "type": "Point",
                "coordinates": [
                    6.134396,
                    49.599714
                ]
            },
            "properties": {
                "Start": "Luxembourg City",
                "End": "Vienna",
                "stop_name": "Luxembourg City",
                "latitude": 49.599714,
                "longitude": 6.134396
            }
        },
        {
            "type": "Feature",
            "geometry": {
                "type": "Point",
                "coordinates": [
                    6.652453,
                    49.756846
                ]
            },
            "properties": {
                "Start": "Luxembourg City",
                "End": "Vienna",
                "stop_name": "Trier",
                "latitude": 49.756846,
                "longitude": 6.652453
            }
        },
        {
            "type": "Feature",
            "geometry": {
                "type": "Point",
                "coordinates": [
                    6.991021,
                    49.241065
                ]
            },
            "properties": {
                "Start": "Luxembourg City",
                "End": "Vienna",
                "stop_name": "Saarbr\u00fccken Hbf",
                "latitude": 49.241065,
                "longitude": 6.991021
            }
        },
        {
            "type": "Feature",
            "geometry": {
                "type": "Point",
                "coordinates": [
                    9.181635,
                    48.784084
                ]
            },
            "properties": {
                "Start": "Luxembourg City",
                "End": "Vienna",
                "stop_name": "Stuttgart Hbf",
                "latitude": 48.784084,
                "longitude": 9.181635
            }
        },
        {
            "type": "Feature",
            "geometry": {
                "type": "Point",
                "coordinates": [
                    16.37278,
                    48.20921
                ]
            },
            "properties": {
                "Start": "Luxembourg City",
                "End": "Vienna",
                "stop_name": "Vienna",
                "latitude": 48.20921,
                "longitude": 16.37278
            }
        }
    ]
}