{
    "type": "FeatureCollection",
    "features": [
        {
            "type": "Feature",
            "geometry": {
                "type": "Point",
                "coordinates": [
                    6.134396,
                    49.599714
                ]
            },
            "properties": {
                "Start": "Luxembourg City",
                "End": "Sofia",
                "stop_name": "Luxembourg City",
                "latitude": 49.599714,
                "longitude": 6.134396
            }
        },
        {
            "type": "Feature",
            "geometry": {
                "type": "Point",
                "coordinates": [
                    6.652453,
                    49.756846
                ]
            },
            "properties": {
                "Start": "Luxembourg City",
                "End": "Sofia",
                "stop_name": "Trier",
                "latitude": 49.756846,
                "longitude": 6.652453
            }
        },
        {
            "type": "Feature",
            "geometry": {
                "type": "Point",
                "coordinates": [
                    8.468921,
                    49.479354
                ]
            },
            "properties": {
                "Start": "Luxembourg City",
                "End": "Sofia",
                "stop_name": "Mannheim",
                "latitude": 49.479354,
                "longitude": 8.468921
            }
        },
        {
            "type": "Feature",
            "geometry": {
                "type": "Point",
                "coordinates": [
                    11.558335,
                    48.140232
                ]
            },
            "properties": {
                "Start": "Luxembourg City",
                "End": "Sofia",
                "stop_name": "M\u00fcnchen Hbf Gl.5-10",
                "latitude": 48.140232,
                "longitude": 11.558335
            }
        },
        {
            "type": "Feature",
            "geometry": {
                "type": "Point",
                "coordinates": [
                    15.6246829,
                    48.2082733
                ]
            },
            "properties": {
                "Start": "Luxembourg City",
                "End": "Sofia",
                "stop_name": "St. P\u00f6lten",
                "latitude": 48.2082733,
                "longitude": 15.6246829
            }
        },
        {
            "type": "Feature",
            "geometry": {
                "type": "Point",
                "coordinates": [
                    19.0845997,
                    47.5004568
                ]
            },
            "properties": {
                "Start": "Luxembourg City",
                "End": "Sofia",
                "stop_name": "Budapest-Keleti",
                "latitude": 47.5004568,
                "longitude": 19.0845997
            }
        },
        {
            "type": "Feature",
            "geometry": {
                "type": "Point",
                "coordinates": [
                    26.074412,
                    44.44677
                ]
            },
            "properties": {
                "Start": "Luxembourg City",
                "End": "Sofia",
                "stop_name": "B\u00fckre\u015fti Nord",
                "latitude": 44.44677,
                "longitude": 26.074412
            }
        },
        {
            "type": "Feature",
            "geometry": {
                "type": "Point",
                "coordinates": [
                    23.316502,
                    42.72677
                ]
            },
            "properties": {
                "Start": "Luxembourg City",
                "End": "Sofia",
                "stop_name": "Sofia Sever",
                "latitude": 42.72677,
                "longitude": 23.316502
            }
        },
        {
            "type": "Feature",
            "geometry": {
                "type": "Point",
                "coordinates": [
                    23.3548272,
                    42.6961324
                ]
            },
            "properties": {
                "Start": "Luxembourg City",
                "End": "Sofia",
                "stop_name": "Sofia, Bulgaria",
                "latitude": 42.6961324,
                "longitude": 23.3548272
            }
        }
    ]
}