{
    "type": "FeatureCollection",
    "features": [
        {
            "type": "Feature",
            "geometry": {
                "type": "Point",
                "coordinates": [
                    -3.68247,
                    40.4721
                ]
            },
            "properties": {
                "Start": "Madrid",
                "End": "Warsaw",
                "stop_name": "Madrid",
                "latitude": 40.4721,
                "longitude": -3.68247
            }
        },
        {
            "type": "Feature",
            "geometry": {
                "type": "Point",
                "coordinates": [
                    -1.8012755,
                    43.3394826
                ]
            },
            "properties": {
                "Start": "Madrid",
                "End": "Warsaw",
                "stop_name": "Irun, Spain",
                "latitude": 43.3394826,
                "longitude": -1.8012755
            }
        },
        {
            "type": "Feature",
            "geometry": {
                "type": "Point",
                "coordinates": [
                    -0.5564074,
                    44.8254453
                ]
            },
            "properties": {
                "Start": "Madrid",
                "End": "Warsaw",
                "stop_name": "Saint-Jean",
                "latitude": 44.8254453,
                "longitude": -0.5564074
            }
        },
        {
            "type": "Feature",
            "geometry": {
                "type": "Point",
                "coordinates": [
                    2.32439,
                    48.84392
                ]
            },
            "properties": {
                "Start": "Madrid",
                "End": "Warsaw",
                "stop_name": "Montparnasse - Bienven\u00fce",
                "latitude": 48.84392,
                "longitude": 2.32439
            }
        },
        {
            "type": "Feature",
            "geometry": {
                "type": "Point",
                "coordinates": [
                    2.3591978,
                    48.8768146
                ]
            },
            "properties": {
                "Start": "Madrid",
                "End": "Warsaw",
                "stop_name": "Gare de l'Est",
                "latitude": 48.8768146,
                "longitude": 2.3591978
            }
        },
        {
            "type": "Feature",
            "geometry": {
                "type": "Point",
                "coordinates": [
                    8.46982,
                    49.4797015
                ]
            },
            "properties": {
                "Start": "Madrid",
                "End": "Warsaw",
                "stop_name": "Mannheim",
                "latitude": 49.4797015,
                "longitude": 8.46982
            }
        },
        {
            "type": "Feature",
            "geometry": {
                "type": "Point",
                "coordinates": [
                    8.663789,
                    50.107145
                ]
            },
            "properties": {
                "Start": "Madrid",
                "End": "Warsaw",
                "stop_name": "Frankfurt Central Station",
                "latitude": 50.107145,
                "longitude": 8.663789
            }
        },
        {
            "type": "Feature",
            "geometry": {
                "type": "Point",
                "coordinates": [
                    13.369402,
                    52.5250839
                ]
            },
            "properties": {
                "Start": "Madrid",
                "End": "Warsaw",
                "stop_name": "Berlin Central Train Station",
                "latitude": 52.5250839,
                "longitude": 13.369402
            }
        },
        {
            "type": "Feature",
            "geometry": {
                "type": "Point",
                "coordinates": [
                    13.469105,
                    52.503037
                ]
            },
            "properties": {
                "Start": "Madrid",
                "End": "Warsaw",
                "stop_name": "Ostkreuz",
                "latitude": 52.503037,
                "longitude": 13.469105
            }
        },
        {
            "type": "Feature",
            "geometry": {
                "type": "Point",
                "coordinates": [
                    14.6449248,
                    52.5913563
                ]
            },
            "properties": {
                "Start": "Madrid",
                "End": "Warsaw",
                "stop_name": "Kostrzy\u0144 nad Odr\u0105, Poland",
                "latitude": 52.5913563,
                "longitude": 14.6449248
            }
        },
        {
            "type": "Feature",
            "geometry": {
                "type": "Point",
                "coordinates": [
                    21.00849,
                    52.23498
                ]
            },
            "properties": {
                "Start": "Madrid",
                "End": "Warsaw",
                "stop_name": "Warsaw",
                "latitude": 52.23498,
                "longitude": 21.00849
            }
        }
    ]
}