{
    "type": "FeatureCollection",
    "features": [
        {
            "type": "Feature",
            "geometry": {
                "type": "Point",
                "coordinates": [
                    11.558335,
                    48.140232
                ]
            },
            "properties": {
                "Start": "Munich",
                "End": "Vilnius",
                "stop_name": "Munich",
                "latitude": 48.140232,
                "longitude": 11.558335
            }
        },
        {
            "type": "Feature",
            "geometry": {
                "type": "Point",
                "coordinates": [
                    13.369402,
                    52.5250839
                ]
            },
            "properties": {
                "Start": "Munich",
                "End": "Vilnius",
                "stop_name": "Berlin Central Train Station",
                "latitude": 52.5250839,
                "longitude": 13.369402
            }
        },
        {
            "type": "Feature",
            "geometry": {
                "type": "Point",
                "coordinates": [
                    13.469105,
                    52.503037
                ]
            },
            "properties": {
                "Start": "Munich",
                "End": "Vilnius",
                "stop_name": "Ostkreuz",
                "latitude": 52.503037,
                "longitude": 13.469105
            }
        },
        {
            "type": "Feature",
            "geometry": {
                "type": "Point",
                "coordinates": [
                    14.6449248,
                    52.5913563
                ]
            },
            "properties": {
                "Start": "Munich",
                "End": "Vilnius",
                "stop_name": "Kostrzy\u0144 nad Odr\u0105, Poland",
                "latitude": 52.5913563,
                "longitude": 14.6449248
            }
        },
        {
            "type": "Feature",
            "geometry": {
                "type": "Point",
                "coordinates": [
                    20.9655106,
                    52.2194795
                ]
            },
            "properties": {
                "Start": "Munich",
                "End": "Vilnius",
                "stop_name": "Warsaw West",
                "latitude": 52.2194795,
                "longitude": 20.9655106
            }
        },
        {
            "type": "Feature",
            "geometry": {
                "type": "Point",
                "coordinates": [
                    25.27986,
                    54.68946
                ]
            },
            "properties": {
                "Start": "Munich",
                "End": "Vilnius",
                "stop_name": "Vilnius",
                "latitude": 54.68946,
                "longitude": 25.27986
            }
        }
    ]
}