{
    "type": "FeatureCollection",
    "features": [
        {
            "type": "Feature",
            "geometry": {
                "type": "Point",
                "coordinates": [
                    11.5599976,
                    48.1402903
                ]
            },
            "properties": {
                "Start": "Munich",
                "End": "Sofia",
                "stop_name": "Munich",
                "latitude": 48.1402903,
                "longitude": 11.5599976
            }
        },
        {
            "type": "Feature",
            "geometry": {
                "type": "Point",
                "coordinates": [
                    16.3354,
                    48.1752143
                ]
            },
            "properties": {
                "Start": "Munich",
                "End": "Sofia",
                "stop_name": "Vienna Meidling",
                "latitude": 48.1752143,
                "longitude": 16.3354
            }
        },
        {
            "type": "Feature",
            "geometry": {
                "type": "Point",
                "coordinates": [
                    19.0839882,
                    47.5004423
                ]
            },
            "properties": {
                "Start": "Munich",
                "End": "Sofia",
                "stop_name": "Budapest-Keleti",
                "latitude": 47.5004423,
                "longitude": 19.0839882
            }
        },
        {
            "type": "Feature",
            "geometry": {
                "type": "Point",
                "coordinates": [
                    26.073892,
                    44.446634
                ]
            },
            "properties": {
                "Start": "Munich",
                "End": "Sofia",
                "stop_name": "B\u00fckre\u015fti Nord",
                "latitude": 44.446634,
                "longitude": 26.073892
            }
        },
        {
            "type": "Feature",
            "geometry": {
                "type": "Point",
                "coordinates": [
                    23.3201447,
                    42.7108787
                ]
            },
            "properties": {
                "Start": "Munich",
                "End": "Sofia",
                "stop_name": "Central Railway Station",
                "latitude": 42.7108787,
                "longitude": 23.3201447
            }
        },
        {
            "type": "Feature",
            "geometry": {
                "type": "Point",
                "coordinates": [
                    23.36495,
                    42.699358
                ]
            },
            "properties": {
                "Start": "Munich",
                "End": "Sofia",
                "stop_name": "Bl.4 ZH.K. Suhata Reka",
                "latitude": 42.699358,
                "longitude": 23.36495
            }
        }
    ]
}