{
    "type": "FeatureCollection",
    "features": [
        {
            "type": "Feature",
            "geometry": {
                "type": "Point",
                "coordinates": [
                    12.5308661,
                    41.9108193
                ]
            },
            "properties": {
                "Start": "Rome",
                "End": "Stockholm",
                "stop_name": "Rome",
                "latitude": 41.9108193,
                "longitude": 12.5308661
            }
        },
        {
            "type": "Feature",
            "geometry": {
                "type": "Point",
                "coordinates": [
                    12.2317662,
                    45.482465
                ]
            },
            "properties": {
                "Start": "Rome",
                "End": "Stockholm",
                "stop_name": "Venice Mestre",
                "latitude": 45.482465,
                "longitude": 12.2317662
            }
        },
        {
            "type": "Feature",
            "geometry": {
                "type": "Point",
                "coordinates": [
                    13.0450707,
                    47.8130704
                ]
            },
            "properties": {
                "Start": "Rome",
                "End": "Stockholm",
                "stop_name": "Salzburg",
                "latitude": 47.8130704,
                "longitude": 13.0450707
            }
        },
        {
            "type": "Feature",
            "geometry": {
                "type": "Point",
                "coordinates": [
                    11.558335,
                    48.140232
                ]
            },
            "properties": {
                "Start": "Rome",
                "End": "Stockholm",
                "stop_name": "M\u00fcnchen Hbf Gl.5-10",
                "latitude": 48.140232,
                "longitude": 11.558335
            }
        },
        {
            "type": "Feature",
            "geometry": {
                "type": "Point",
                "coordinates": [
                    10.0066369,
                    53.552993
                ]
            },
            "properties": {
                "Start": "Rome",
                "End": "Stockholm",
                "stop_name": "Hamburg Central Station",
                "latitude": 53.552993,
                "longitude": 10.0066369
            }
        },
        {
            "type": "Feature",
            "geometry": {
                "type": "Point",
                "coordinates": [
                    12.5648118,
                    55.6727679
                ]
            },
            "properties": {
                "Start": "Rome",
                "End": "Stockholm",
                "stop_name": "K\u00f6benhavn H",
                "latitude": 55.6727679,
                "longitude": 12.5648118
            }
        },
        {
            "type": "Feature",
            "geometry": {
                "type": "Point",
                "coordinates": [
                    13.1869731,
                    55.7067651
                ]
            },
            "properties": {
                "Start": "Rome",
                "End": "Stockholm",
                "stop_name": "Lund C",
                "latitude": 55.7067651,
                "longitude": 13.1869731
            }
        },
        {
            "type": "Feature",
            "geometry": {
                "type": "Point",
                "coordinates": [
                    18.06449,
                    59.33279
                ]
            },
            "properties": {
                "Start": "Rome",
                "End": "Stockholm",
                "stop_name": "Stockholm",
                "latitude": 59.33279,
                "longitude": 18.06449
            }
        }
    ]
}